City_ID,City,Country,Max Temp,Current Description,Lat,Lng,Hotel Name
8,Ambulu,ID,78.71,overcast clouds,-8.345,113.6058,Hotel Ambulu Jember
9,Ambilobe,MG,83.28,light rain,-13.2,49.05,Hôtel & Restaurant DIANA Ambilobe
10,Atuona,PF,78.78,overcast clouds,-9.8,-139.0333,Villa Enata
17,Avarua,CK,75.25,moderate rain,-21.2078,-159.775,Paradise Inn
18,Rikitea,PF,76.68,overcast clouds,-23.1203,-134.9692,People ThankYou
19,Gondanglegi,ID,76.89,overcast clouds,-7.7479,112.0132,Rumah Mujiatin
21,Songkhla,TH,77.05,broken clouds,6.8333,100.6667,น.ส ซัลมา สาแม็ง
25,Saint-Philippe,RE,78.35,light rain,-21.3585,55.7679,"Chambres d'hôte ""La Trinité"""
28,Mozarlandia,BR,82.15,overcast clouds,-14.7447,-50.5706,Hotel Santa Mônica
31,Castro,BR,86.02,clear sky,-24.7911,-50.0119,CHACARA BAILLY
32,Samana,DO,82.36,few clouds,19.2056,-69.3369,The Bannister - Hotel & Yacht Club
37,Miandrivazo,MG,88.23,broken clouds,-19.5167,45.4667,Hôtel Arc En Ciel Miandrivazo
45,Namibe,AO,75.2,overcast clouds,-15.1961,12.1522,Hotel Chik Chik Namibe
50,Sumbe,AO,80.58,few clouds,-11.2061,13.8437,Hotel Ritz Sumbe
51,Vaini,TO,80.37,overcast clouds,-21.2,-175.2,Keleti Beach Resort
53,Champerico,GT,87.76,scattered clouds,14.3,-91.9167,"Hotel y restaurante ""El Diamante"""
61,Chuy,UY,77.32,clear sky,-33.6971,-53.4616,Nuevo Hotel Plaza
62,Ponta Do Sol,PT,75.0,few clouds,32.6667,-17.1,Hotel do Campo
63,Salalah,OM,77.09,clear sky,17.0151,54.0924,"HAMDAN PLAZA HOTEL SALALAH, an HTG Hotel"
67,Cape Town,ZA,78.35,scattered clouds,-33.9258,18.4232,Southern Sun Waterfront Cape Town
68,Olavarria,AR,78.03,clear sky,-36.8927,-60.3225,Hotel Santa Rosa
70,Nelson Bay,AU,75.0,overcast clouds,-32.7167,152.15,Mantra Nelson Bay
79,Hermanus,ZA,76.89,broken clouds,-34.4187,19.2345,Misty Waves Boutique Hotel
81,Lufilufi,WS,81.63,overcast clouds,-13.8745,-171.5986,Leuaina Beach Resort and Spa
82,Labuhan,ID,81.05,scattered clouds,-6.8844,112.2051,PT PPI Lamongan Tambak C
87,San Rafael,AR,80.92,scattered clouds,-34.6177,-68.3301,Hotel San Rafael
98,Georgetown,MY,80.53,few clouds,5.4112,100.3354,Cititel Penang
108,Aquiraz,BR,89.69,few clouds,-3.9014,-38.3911,Pousada Rua Camurupim
112,Butaritari,KI,80.94,overcast clouds,3.0707,172.7902,Isles Sunset Lodge
113,Mogadishu,SO,80.02,overcast clouds,2.0371,45.3438,Hotel Juba
114,Sorong,ID,81.0,overcast clouds,-0.8833,131.25,Waigo Splash Hotel
115,Souillac,MU,78.37,broken clouds,-20.5167,57.5167,Shanti Maurice Resort & Spa
123,Bengkulu,ID,76.46,few clouds,-3.8004,102.2655,Grage Hotel Bengkulu
125,Olinda,BR,85.73,broken clouds,-8.0089,-34.8553,Hotel Albergue de Olinda
128,Manta,EC,76.78,overcast clouds,-0.95,-80.7333,Balandra Hotel
129,Kalmunai,LK,78.53,scattered clouds,7.4167,81.8167,VS Villa
132,Domoni,KM,83.12,overcast clouds,-12.2569,44.5319,Al Djadid
133,Diego De Almagro,CL,76.69,overcast clouds,-26.3667,-70.05,hotel luna del desierto
137,Asosa,ET,78.26,overcast clouds,10.0667,34.5333,Blendana Hotel Assosa
139,Conceicao Do Araguaia,BR,84.74,overcast clouds,-8.2578,-49.2647,Tarumã Tropical Hotel
149,Vao,NC,75.09,scattered clouds,-22.6667,167.4833,Hotel Kou-Bugny
150,Nabire,ID,75.42,overcast clouds,-3.3667,135.4833,Hotel Nusantara Nabire
151,Angoche,MZ,82.54,broken clouds,-16.2325,39.9086,Guest House HESADA
157,Bambous Virieux,MU,78.22,light rain,-20.3428,57.7575,Casa Tia Villa
160,Touros,BR,88.7,scattered clouds,-5.1989,-35.4608,INN NEW HORIZON
167,Mataram,ID,83.21,scattered clouds,-8.5833,116.1167,Hotel Santika Mataram
170,Ndjole,GA,89.92,overcast clouds,-0.1783,10.7649,Motel Kédyann
171,Sinnamary,GF,76.24,moderate rain,5.3833,-52.95,ALETHEIA Appartement Sinnamary
172,Arraial Do Cabo,BR,84.06,clear sky,-22.9661,-42.0278,Pousada Porto Praia
173,Mahebourg,MU,78.26,broken clouds,-20.4081,57.7,Shandrani Beachcomber Resort & Spa
177,Carauari,BR,83.25,overcast clouds,-4.8828,-66.8958,Hotel Fellip
178,Hithadhoo,MV,81.68,overcast clouds,-0.6,73.0833,Scoop Guest House
179,Benjamin Constant,BR,82.53,broken clouds,-4.3831,-70.0311,CASA AVALIADA
181,Coihaique,CL,75.81,clear sky,-45.5752,-72.0662,Diego De Almagro Coyhaique
185,Kloulklubed,PW,79.3,overcast clouds,7.0419,134.2556,Storyboard Beach Resort
192,Lazaro Cardenas,MX,77.63,clear sky,17.9583,-102.2,quinta antigua
195,Kanniyakumari,IN,78.62,broken clouds,8.0833,77.5667,Sparsa
196,Tual,ID,80.65,overcast clouds,-5.6667,132.75,Grand Vilia Hotel
201,Kavaratti,IN,80.17,few clouds,10.5669,72.642,Hotels in Lakshadweep Islands
204,Puerto Madryn,AR,83.77,few clouds,-42.7692,-65.0385,Hotel Tolosa
210,Dingle,PH,75.09,overcast clouds,10.9995,122.6711,SEGAYA PROPERTY
215,Mount Isa,AU,76.77,light rain,-20.7333,139.5,ibis Styles Mt Isa Verona
217,Binabalian,PH,80.01,overcast clouds,16.4202,119.9279,Sundowners Vacation Villas
219,Ghanzi,BW,86.09,broken clouds,-21.5667,21.7833,Ghanzi Farmhouse
223,Puerto Escondido,MX,79.63,clear sky,15.85,-97.0667,Aldea del Bazar Hotel and Spa
224,Meulaboh,ID,78.21,broken clouds,4.1363,96.1285,Kost Pria
227,Dhidhdhoo,MV,81.25,scattered clouds,6.8833,73.1,Dhidhoo beach
228,Polo,PH,79.29,overcast clouds,9.4822,123.1822,Amlan Bluewater Beach Resort & Hotel
235,Mtwara,TZ,82.94,few clouds,-10.2667,40.1833,TIL Hotels Mtwara
237,Menongue,AO,77.56,overcast clouds,-14.6585,17.691,Ritz Lauca
238,Jatai,BR,86.85,scattered clouds,-17.8814,-51.7144,La Vitre Hotel
242,Viedma,AR,81.23,clear sky,-40.8135,-62.9967,Hotel Cristal
243,Maragogi,BR,85.37,overcast clouds,-9.0122,-35.2225,Salinas do Maragogi All Inclusive Resort
244,Caucaia,BR,89.55,broken clouds,-3.7361,-38.6531,M.O.S. Logística - Filial Fortaleza
275,Faanui,PF,81.19,moderate rain,-16.4833,-151.75,Bora-Bora Pearl Beach Resort & Spa
285,Kavieng,PG,82.09,light rain,-2.5744,150.7967,Nusa Island Retreat
289,Kankon,IN,78.6,clear sky,15.0167,74.0167,Palolem Beach Resort
292,Auki,SB,77.76,overcast clouds,-8.7676,160.7034,Auki Motel
299,Bima,ID,78.98,overcast clouds,-8.4667,118.7167,Lambitu Hotel
303,Grand Gaube,MU,78.39,moderate rain,-20.0064,57.6608,Veranda Paul et Virginie Hotel & Spa
309,Tevaitoa,PF,81.25,moderate rain,-16.7833,-151.5,Hôtel Raiatea Lodge
311,Kabinda,CD,75.54,overcast clouds,-6.1333,24.4833,Village Mianda Mutole
312,Bowen,AU,78.28,clear sky,-20.0167,148.2333,Castle Motor Lodge Motel
315,Itarema,BR,88.97,few clouds,-2.9248,-39.9167,"Sea Lounge! Bar, Club & Restaurant"
321,San Cristobal,VE,75.38,overcast clouds,7.7669,-72.225,Posada Villaven C.A.
322,Pirai,BR,88.95,clear sky,-22.6292,-43.8981,Sonhos e Delicias da Terra
326,Port Blair,IN,78.04,scattered clouds,11.6667,92.75,"Welcomhotel By ITC Hotels, Bay Island, Port Blair"
327,Koumac,NC,78.17,clear sky,-20.5667,164.2833,Le Monitel
328,Bandarbeyla,SO,78.33,scattered clouds,9.4942,50.8122,JABIR HOTEL
330,Natal,BR,88.45,broken clouds,-5.795,-35.2094,Villa Park Hotel | Natal
335,Tsiroanomandidy,MG,81.01,overcast clouds,-18.7667,46.0333,Hotel Ravinala
336,El Tocuyo,VE,80.46,broken clouds,9.7873,-69.7937,HOTEL BOUTIQUE SANTO DOMINGO
338,Poum,NC,79.54,clear sky,-20.2333,164.0167,Gîte kajeon
343,Teseney,ER,86.34,scattered clouds,15.11,36.6575,Sabrin Hotel
344,Puerto Colombia,CO,84.29,overcast clouds,10.9878,-74.9547,Hotel El Emigrante
346,Kapoeta,SS,88.2,overcast clouds,4.7717,33.5903,Eastgate Hotel
348,Pedro Carbo,EC,81.21,overcast clouds,-1.8333,-80.2333,Centro turístico y hostería oasis pedro carbo
352,Oistins,BB,86.09,scattered clouds,13.0667,-59.5333,Butterfly Beach Hotel
353,Bathsheba,BB,86.61,scattered clouds,13.2167,-59.5167,Atlantis Hotel
356,Sampit,ID,76.1,overcast clouds,-2.5333,112.95,Aquarius Boutique Hotel Sampit
359,Lorengau,PG,81.77,overcast clouds,-2.0226,147.2712,Lorengau Harbourside Hotel
362,Cayenne,GF,78.1,heavy intensity rain,4.9333,-52.3333,Hôtel Le Dronmi
363,Cidreira,BR,77.02,clear sky,-30.1811,-50.2056,Hotel Castelo
370,Jizan,SA,83.34,broken clouds,17.3333,42.6667,شهدان. ابوالحجر
372,Kirakira,SB,80.83,overcast clouds,-10.4544,161.9205,SanBiz Lodge
376,Port Keats,AU,83.44,overcast clouds,-14.25,129.55,TDC Village (Hundred Man Camp)
381,Kudahuvadhoo,MV,82.6,broken clouds,2.6708,72.8944,Niyama Private Islands Maldives
382,Honiara,SB,78.46,overcast clouds,-9.4333,159.95,Heritage Park Hotel
383,Chabahar,IR,75.7,clear sky,25.2919,60.643,هتل گدروشیا
388,Belmonte,BR,81.1,broken clouds,-15.8631,-38.8828,Pousada Monte Carmelo O Pão
394,Amuntai,ID,76.24,overcast clouds,-2.4177,115.2494,Hotel Balqis
398,Mayuge,UG,76.28,overcast clouds,0.4597,33.4803,Kagolo Bar and Lodge
399,Pitimbu,BR,88.39,scattered clouds,-7.4706,-34.8086,Reserva do Abiaí
402,Acapulco,MX,78.62,few clouds,16.8634,-99.8901,HS Hotsson Smart Acapulco
404,Kieta,PG,79.95,moderate rain,-6.2167,155.6333,Uruna Bay Retreat
406,Mecca,SA,76.37,clear sky,21.4267,39.8261,"Makkah Clock Royal Tower, A Fairmont Hotel"
407,Sao Felix Do Xingu,BR,87.58,overcast clouds,-6.6447,-51.995,Rio Xingu Camping
411,Gulu,UG,80.62,overcast clouds,2.7746,32.299,ACHOLI INN
417,America Dourada,BR,83.41,overcast clouds,-11.4553,-41.4361,Pousada do Ninho
418,Bonoua,CI,89.22,broken clouds,5.2741,-3.595,Hotel Bon Samaritian
422,Rocha,UY,78.44,clear sky,-34.4833,-54.3333,Hotel Arrarte
426,Cozumel,MX,75.27,clear sky,20.5083,-86.9458,Cozumel Palace® All Inclusive Resort
430,Mubi,NG,89.58,clear sky,10.2676,13.2644,Hotel
432,Rosa Zarate,EC,75.25,overcast clouds,0.3333,-79.4667,Piscinas y Recepciones Hecalash
437,Bilma,NE,75.52,broken clouds,18.6853,12.9164,Expeditions Ténére voyages
440,Yulara,AU,78.64,clear sky,-25.2406,130.9889,Desert Gardens Hotel - Ayers Rock Resort
442,Chinsali,ZM,76.95,overcast clouds,-10.5414,32.0816,Chisakatu Guest House
447,Paracuru,BR,89.62,few clouds,-3.41,-39.0306,Hotel Vento Brasil
452,La Romana,DO,82.13,broken clouds,18.4273,-68.9728,Casa de Campo Resort and Villas
454,Kumo,NG,88.34,broken clouds,10.0447,11.2122,Ajegunle Lodge(corpers Lodge)
461,Kannur,IN,76.87,clear sky,11.8675,75.3576,Asokam Beach Resort and Ayurveda Chikitsa Kendram
465,Nicoya,CR,81.95,clear sky,10.1483,-85.452,Las Cabinas Del Sueño
468,Baillif,GP,81.9,clear sky,16.0202,-61.7463,Hôtel Saint-Georges
469,Banjar,ID,82.26,overcast clouds,-8.19,114.9675,The Hamsa Resort
471,Pochutla,MX,82.81,clear sky,15.7432,-96.4661,Hotel Posada San Jose
472,Progreso,MX,75.11,scattered clouds,21.2833,-89.6667,Playa Linda Hotel
474,Acarau,BR,89.06,scattered clouds,-2.8856,-40.12,castelo pizzaria
475,Atar,MR,84.42,scattered clouds,20.5169,-13.0499,Oumou Elghoura
476,Cap Malheureux,MU,78.48,moderate rain,-19.9842,57.6142,Pereybere Hotel & Spa
477,Dzaoudzi,YT,85.89,few clouds,-12.7887,45.2699,Le Rocher
478,Moranbah,AU,75.69,clear sky,-22.0016,148.0466,Direct Hotels - Monterey Moranbah
481,Itacoatiara,BR,88.54,scattered clouds,-3.1431,-58.4442,BBB Rooms Centro Itacoatiara AM
483,Tarakan,ID,80.1,scattered clouds,3.3,117.6333,RedDoorz Syariah near Taman Berlabuh Tarakan
484,Bintulu,MY,79.21,few clouds,3.1667,113.0333,900 Boutique INN
490,Luanda,AO,82.4,scattered clouds,-8.8368,13.2343,Hotel Fórum
491,Noumea,NC,80.01,scattered clouds,-22.2763,166.4572,Hôtel Le Lagon
492,Arlit,NE,80.08,broken clouds,18.7369,7.3853,Case de Passage De la Prefecture
500,San Andres,CO,84.22,few clouds,12.5847,-81.7006,Hotel Arena Blanca
502,Pontes E Lacerda,BR,76.77,overcast clouds,-15.2261,-59.3353,Hotel Bressan
505,Pau Brasil,BR,76.68,overcast clouds,-15.4642,-39.6511,Tina Hotel
508,Alice Springs,AU,85.55,broken clouds,-23.7,133.8833,Desert Palms Alice Springs
509,Vila Velha,BR,89.55,few clouds,-20.3297,-40.2925,Quality Suites Vila Velha
512,Caravelas,BR,80.29,broken clouds,-17.7125,-39.2481,Pousada dos Navegantes
517,Manaure,CO,87.91,scattered clouds,11.7751,-72.4445,Hotel Palaaima
518,Katherine,AU,86.32,overcast clouds,-14.4667,132.2667,Pine Tree Motel
520,Boa Vista,BR,87.78,broken clouds,2.8197,-60.6733,Aipana Plaza Hotel
524,Salina Cruz,MX,78.76,clear sky,16.1667,-95.2,Amerik HOTEL
527,Tete,MZ,80.69,broken clouds,-16.1564,33.5867,Zambeze Paraíso Misterioso
528,Hambantota,LK,80.94,clear sky,6.1241,81.1185,Bungalow 63
529,Puerto Quijarro,BO,83.79,overcast clouds,-17.7833,-57.7667,Hotel palance
539,Bubaque,GW,83.62,broken clouds,11.2833,-15.8333,"Casa Dora, Bubaque"
540,Riberalta,BO,79.0,broken clouds,-10.9833,-66.1,Hotel Colonial
541,Samarai,PG,81.84,clear sky,-10.6167,150.6667,Nuli Sapi
545,Praya,CV,81.14,few clouds,14.9215,-23.5087,LT Aparthotel
548,Iquitos,PE,86.04,broken clouds,-3.7481,-73.2472,Casa Morey Hotel & Restaurant
552,Vanimo,PG,78.6,overcast clouds,-2.6741,141.3028,Vahmoneh Lodge Vanimo
556,Acajutla,SV,84.54,broken clouds,13.5928,-89.8275,asi es
559,Kinablangan,PH,76.55,heavy intensity rain,7.6947,126.5503,Morales Eatery and Lodging House
561,Ambon,ID,80.74,broken clouds,-3.6954,128.1814,Swiss-Belhotel Ambon
562,Richards Bay,ZA,80.96,scattered clouds,-28.783,32.0377,BON Hotel Waterfront Richards Bay
563,Iracoubo,GF,76.42,moderate rain,5.4802,-53.2011,Le Gîte d’Iracoubo
564,Buala,SB,80.62,moderate rain,-8.145,159.5921,Maringe Lagoon Lodge
566,Tutoia,BR,89.58,overcast clouds,-2.7619,-42.2744,Pousada Guará's
569,Bonthe,SL,88.56,overcast clouds,7.5264,-12.505,Bonthe Holiday Village
572,Manokwari,ID,78.76,moderate rain,-0.8667,134.0833,Swiss Belhotel Manokwari
579,Hienghene,NC,76.12,scattered clouds,-20.6833,164.9333,Ka Waboana Lodge
587,Cabedelo,BR,88.47,light rain,-6.9811,-34.8339,Hotel Pigalle
590,Port Hedland,AU,84.25,scattered clouds,-20.3167,118.5667,"The Esplanade Hotel (Accommodation section closed for refurbishment - Bar, Restaurant & Functions remain open)"
592,San Policarpo,PH,80.01,broken clouds,12.1791,125.5072,Agapita M. Nicart
593,Trat,TH,82.98,scattered clouds,12.5,102.5,สวนหนิง-อัศ
594,Isangel,VU,79.11,clear sky,-19.55,169.2667,Tanna Lodge
601,Ankazoabo,MG,86.47,broken clouds,-22.2833,44.5167,ENCEIN BUREAU CISCO
603,Katakwi,UG,84.09,overcast clouds,1.8911,33.9661,Ebenezer Guest House
607,Harper,LR,87.53,broken clouds,4.375,-7.7169,Screensaver
625,Quelimane,MZ,84.15,scattered clouds,-17.8786,36.8883,Hotel Flamingo
626,Descalvado,BR,88.68,clear sky,-21.9039,-47.6194,Hotel Descalvado
628,Majene,ID,80.22,overcast clouds,-3.5403,118.9707,Kost Putri RABBANI
630,Satipo,PE,81.09,overcast clouds,-11.2522,-74.6386,Bungalows El Palmiche
633,Guia Lopes Da Laguna,BR,86.83,overcast clouds,-21.4578,-56.1142,Donna Lu
634,Sao Joao Da Barra,BR,87.89,clear sky,-21.6403,-41.0511,Pousada Porto De Canoas
635,Gurupi,BR,82.74,broken clouds,-11.7292,-49.0686,Via Norte Hotel
636,Braganca,BR,88.84,overcast clouds,-1.0536,-46.7656,Marujo's Suíte Hotel
637,Paysandu,UY,89.6,clear sky,-32.3214,-58.0756,Gran Hotel Paysandú
639,Manzanillo,CU,79.63,overcast clouds,20.3433,-77.1167,"HOSTAL ""THE YELLOW HOUSE"""
642,Saint-Pierre,RE,78.44,clear sky,-21.3393,55.4781,Lindsey Hôtel
646,Bosaso,SO,77.02,broken clouds,11.2842,49.1816,Red Sea Hotel
648,Utinga,BR,88.65,scattered clouds,-5.8172,-35.3954,Espaço de Lazer Érica Fernandes
652,Barabai,ID,76.8,moderate rain,-2.5833,115.3833,HOTEL BOURAQ INDAH PERMAI
654,Anito,PH,78.75,overcast clouds,12.4497,125.2886,FELIPA LAODENIO PROPERTY
657,Rawson,AR,79.75,scattered clouds,-43.3002,-65.1023,Hosteria Sampedro
664,Tessaoua,NE,85.03,broken clouds,13.7574,7.9874,Benin Dan Kaabou Heberge
674,Morondava,MG,82.36,clear sky,-20.2833,44.2833,La Case Bambou
675,Carutapera,BR,88.43,overcast clouds,-1.195,-46.02,Lidera
684,Manacapuru,BR,84.78,overcast clouds,-3.2997,-60.6206,Novo Hotel
698,Puerto Maldonado,PE,75.6,overcast clouds,-12.6,-69.1833,Wasai Hotel
699,Watsa,CD,78.62,overcast clouds,3.0372,29.5355,Hôtel Le Pacifique
701,Kitgum,UG,87.49,overcast clouds,3.2783,32.8867,Jaflo Gardens Hotel
703,Tahoua,NE,85.14,broken clouds,14.8888,5.2692,Bungalows Guesthouse
705,Salinopolis,BR,85.73,overcast clouds,-0.6136,-47.3561,Salinas Park Resort Maçarico AP101
706,Tagusao,PH,78.78,broken clouds,9.1924,117.8141,Toledo
